[
	{
		"id": "1",
		"name": "Universitas Negeri Surabaya",
		"address": "Jl. Lidah Wetan",
		"latitude": "Lidah Wetan",
		"longitude": "Kec. Lakarsantri"
	},
	{
		"id": "2",
		"name": "Institude Teknologi Sepuluh Nopember",
		"address": "Jl. Teknik Kimia",
		"latitude": "Keputih",
		"longitude": "Kec. Sukolilo"
	},
	{
		"id": "3",
		"name": "Universitas Airlangga Kampus A",
		"address": "Kampus A UNAIR",
		"latitude": "Jl. Mayjen Prof. Dr. Moestopo No.47",
		"longitude": "Pacar Kembang"
	},
	{
		"id": "4",
		"name": "Universitas Airlangga Kampus B",
		"address": "Jl. Airlangga No.4 - 6",
		"latitude": "Airlangga",
		"longitude": "Kec. Gubeng"
	},
	{
		"id": "5",
		"name": "Universitas Airlangga Kampus C",
		"address": "Jl. Dr. Ir. H. Soekarno",
		"latitude": "Mulyorejo",
		"longitude": "Kec. Mulyorejo"
	},
	{
		"id": "6",
		"name": "Universitas Muhammadiyah Surabaya",
		"address": "Jl. Raya Sutorejo No.59",
		"latitude": "Dukuh Sutorejo",
		"longitude": "Kec. Mulyorejo"
	},
	{
		"id": "7",
		"name": "Universitas Pembangunan Nasional Veteran Jawa Timur",
		"address": "Jl. Rungkut Madya No.1",
		"latitude": "Gn. Anyar",
		"longitude": "Kec. Gn. Anyar"
	},
	{
		"id": "8",
		"name": "Universitas Surabaya",
		"address": "Jl. Raya Rungkut",
		"latitude": "Kali Rungkut",
		"longitude": "Kec. Rungkut"
	},
	{
		"id": "9",
		"name": "Universitas Islam Negeri Sunan Ampel Surabaya",
		"address": "Jl. Ahmad Yani No.117",
		"latitude": "Jemur Wonosari",
		"longitude": "Kec. Wonocolo"
	},
	{
		"id": "10",
		"name": "Universitas Kristen Petra",
		"address": "l. Siwalankerto No.121-131",
		"latitude": "Siwalankerto",
		"longitude": "Kec. Wonocolo"
	},
	{
		"id": "11",
		"name": "Universitas Katolik Widya Mandala Surabaya",
		"address": "Jl. Kalisari Selatan No.1 Kalisari",
		"latitude": "Pakuwon City",
		"longitude": "Kec. Mulyorejo"
	},
	{
		"id": "12",
		"name": "Politeknik Elektronika Negeri Surabaya",
		"address": "Sepuluh Nopember Institute of Technology (ITS)",
		"latitude": "Kampus",
		"longitude": "Jl. Raya ITS"
	},
	{
		"id": "13",
		"name": "Universitas Ciputra Surabaya",
		"address": "CitraLand CBD Boulevard",
		"latitude": "Made",
		"longitude": "Kec. Sambikerep"
	},
	{
		"id": "14",
		"name": "Universitas Wijaya Kusuma Surabaya",
		"address": "Jl. Dukuh Kupang XXV No.54",
		"latitude": "Dukuh Kupang",
		"longitude": "Kec. Dukuhpakis"
	},
	{
		"id": "15",
		"name": "Politeknik Perkapalan Negeri Surabaya",
		"address": "ITS Sukolilo",
		"latitude": "Jl. Teknik Kimia",
		"longitude": "Keputih"
	},
	{
		"id": "16",
		"name": "Institut Teknologi Telkom Surabaya",
		"address": "Jl. Ketintang No.156",
		"latitude": "Ketintang",
		"longitude": "Kec. Gayungan"
	},
	{
		"id": "17",
		"name": "Universitas Wijaya Putra - Kampus Benowo",
		"address": "Jl. Pd. Benowo Indah No.1-3",
		"latitude": "Babat Jerawat",
		"longitude": "Kec. Pakal"
	},
	{
		"id": "18",
		"name": "Universitas W.R. Supratman",
		"address": "Jl. Arief Rahman Hakim No.14",
		"latitude": "Keputih",
		"longitude": "Kec. Sukolilo"
	},
	{
		"id": "19",
		"name": "Universitas Yos Soedarso",
		"address": "Jl. Raya Dukuh Kupang Barat No.1/216-218",
		"latitude": "Dukuh Kupang",
		"longitude": "Kec. Dukuhpakis"
	},
	{
		"id": "20",
		"name": "STIKES Katolik St.Vincentius A Paulo Surabaya",
		"address": "Jl. Jambi No.12 - 18",
		"latitude": "Darmo",
		"longitude": "Kec. Wonokromo"
	},
	{
		"id": "21",
		"name": "Universitas 17 Agustus 1945 Surabaya",
		"address": "Jl. Semolowaru No.45",
		"latitude": "Menur Pumpungan",
		"longitude": "Kec. Sukolilo"
	},
	{
		"id": "22",
		"name": "Politeknik Kesehatan Kemenkes Surabaya",
		"address": "Jl. Pucang Jajar Tengah No.56",
		"latitude": "Kertajaya",
		"longitude": "Kec. Gubeng"
	}
]